{"type": "FeatureCollection", "features": [{"geometry": {"type": "Point", "coordinates": [-73.929918, 40.812311]}, "type": "Feature", "id": "0", "properties": {"RS_ID": 1, "Location": "Park Avenue  between E 135th St and E 138th St (east side)"}}, {"geometry": {"type": "Point", "coordinates": [-73.9865206939, 40.6731545147]}, "type": "Feature", "id": "1", "properties": {"RS_ID": 2, "Location": "Fourth Avenue between Third St and Sixth St"}}, {"geometry": {"type": "Point", "coordinates": [-73.9602709752, 40.7185812457]}, "type": "Feature", "id": "2", "properties": {"RS_ID": 3, "Location": "North 6th Street between Berry St and Wythe St"}}, {"geometry": {"type": "Point", "coordinates": [-73.9311791758, 40.6594997188]}, "type": "Feature", "id": "3", "properties": {"RS_ID": 4, "Location": "Utica Avenue between Winthrop St and Rutland Blvd"}}, {"geometry": {"type": "Point", "coordinates": [-74.0022979229, 40.7502959021]}, "type": "Feature", "id": "4", "properties": {"RS_ID": 5, "Location": "Tenth Avenue between W 26th St and W 28th St"}}, {"geometry": {"type": "Point", "coordinates": [-73.9928041325, 40.7581652976]}, "type": "Feature", "id": "5", "properties": {"RS_ID": 6, "Location": "Ninth Avenue between W 42nd St and W 41st St"}}, {"geometry": {"type": "Point", "coordinates": [-73.9876413089, 40.7601329837]}, "type": "Feature", "id": "6", "properties": {"RS_ID": 7, "Location": "Eighth Avenue between W 46th St and W 47th St  (west side)"}}, {"geometry": {"type": "Point", "coordinates": [-73.9930116229, 40.7426000521]}, "type": "Feature", "id": "7", "properties": {"RS_ID": 8, "Location": "Sixth Avenue between W 22nd St and W 23th St"}}, {"geometry": {"type": "Point", "coordinates": [-73.9857177274, 40.7526947314]}, "type": "Feature", "id": "8", "properties": {"RS_ID": 9, "Location": "Sixth Avenue between W 38th St and W 39th St"}}, {"geometry": {"type": "Point", "coordinates": [-73.9852168116, 40.753280021]}, "type": "Feature", "id": "9", "properties": {"RS_ID": 10, "Location": "Sixth Avenue between W 39th St and W 40th St"}}, {"geometry": {"type": "Point", "coordinates": [-73.9778965787, 40.7633770196]}, "type": "Feature", "id": "10", "properties": {"RS_ID": 11, "Location": "Sixth Avenue between W 55th St and W 56th St"}}, {"geometry": {"type": "Point", "coordinates": [-73.9993228128, 40.7339536796]}, "type": "Feature", "id": "11", "properties": {"RS_ID": 12, "Location": "Sixth Avenue between W 8th St and W 9th St"}}, {"geometry": {"type": "Point", "coordinates": [-73.9848850666, 40.7597864269]}, "type": "Feature", "id": "12", "properties": {"RS_ID": 13, "Location": "Broadway between W 48th St and W 47th St"}}, {"geometry": {"type": "Point", "coordinates": [-73.9869263289, 40.7337163043]}, "type": "Feature", "id": "13", "properties": {"RS_ID": 14, "Location": "Third Avenue between E 14th St and E 15th St  (west side)"}}, {"geometry": {"type": "Point", "coordinates": [-73.9893199634, 40.7141643064]}, "type": "Feature", "id": "14", "properties": {"RS_ID": 15, "Location": "Canal St between E Broadway and Essex St"}}, {"geometry": {"type": "Point", "coordinates": [-73.9916636791, 40.7369851536]}, "type": "Feature", "id": "15", "properties": {"RS_ID": 16, "Location": "E 16th St between Fifth Ave and Union Square West north side"}}, {"geometry": {"type": "Point", "coordinates": [-73.9881030289, 40.7362599655]}, "type": "Feature", "id": "16", "properties": {"RS_ID": 17, "Location": "E 17th St between Irving Place and Park Ave South"}}, {"geometry": {"type": "Point", "coordinates": [-73.9796636588, 40.7374184059]}, "type": "Feature", "id": "17", "properties": {"RS_ID": 18, "Location": "E23rd St between First Ave and Second Ave"}}, {"geometry": {"type": "Point", "coordinates": [-73.9852679952, 40.7430686047]}, "type": "Feature", "id": "18", "properties": {"RS_ID": 19, "Location": "E 27th St between Park Ave S and Madison Ave"}}, {"geometry": {"type": "Point", "coordinates": [-73.9864418488, 40.744367163]}, "type": "Feature", "id": "19", "properties": {"RS_ID": 20, "Location": "E 28th St between Fifth Ave and Madison Ave"}}, {"geometry": {"type": "Point", "coordinates": [-73.983200633, 40.7430167211]}, "type": "Feature", "id": "20", "properties": {"RS_ID": 21, "Location": "E 28th St between Park Ave S and Lexington Ave"}}, {"geometry": {"type": "Point", "coordinates": [-73.9859775191, 40.7450002351]}, "type": "Feature", "id": "21", "properties": {"RS_ID": 22, "Location": "E 29th St between Madison Aveand Fifth Ave"}}, {"geometry": {"type": "Point", "coordinates": [-73.9547901937, 40.7715463493]}, "type": "Feature", "id": "22", "properties": {"RS_ID": 23, "Location": "E 77th St between First Ave and Second Ave"}}, {"geometry": {"type": "Point", "coordinates": [-73.9585526399, 40.7739702726]}, "type": "Feature", "id": "23", "properties": {"RS_ID": 24, "Location": "E 78th St between Lexington Ave and Third Ave"}}, {"geometry": {"type": "Point", "coordinates": [-73.9461571397, 40.7755721721]}, "type": "Feature", "id": "24", "properties": {"RS_ID": 25, "Location": "E 86th St between Henderson Place and York Ave"}}, {"geometry": {"type": "Point", "coordinates": [-73.9934558951, 40.7180588194]}, "type": "Feature", "id": "25", "properties": {"RS_ID": 26, "Location": "Grand St between Forsythe St and Chrystie St"}}, {"geometry": {"type": "Point", "coordinates": [-73.9826412972, 40.7424036887]}, "type": "Feature", "id": "26", "properties": {"RS_ID": 27, "Location": "Lexington Ave between E 28th St and E 27th St"}}, {"geometry": {"type": "Point", "coordinates": [-73.9835073963, 40.7411272158]}, "type": "Feature", "id": "27", "properties": {"RS_ID": 28, "Location": "Lexington Ave between E 25th St and E 26th St"}}, {"geometry": {"type": "Point", "coordinates": [-73.9837737312, 40.7408064529]}, "type": "Feature", "id": "28", "properties": {"RS_ID": 29, "Location": "Lexington Ave between E 26th St and E 24th St"}}, {"geometry": {"type": "Point", "coordinates": [-73.9863326127, 40.7430889268]}, "type": "Feature", "id": "29", "properties": {"RS_ID": 30, "Location": "Madison Ave between E 26th St and E 27th St"}}, {"geometry": {"type": "Point", "coordinates": [-74.0050116188, 40.7185863461]}, "type": "Feature", "id": "30", "properties": {"RS_ID": 31, "Location": "Church St between Franklin St and White St  (east side)"}}, {"geometry": {"type": "Point", "coordinates": [-74.0066045288, 40.7040126843]}, "type": "Feature", "id": "31", "properties": {"RS_ID": 32, "Location": "South St between Wall St and Gouveneur Lane"}}, {"geometry": {"type": "Point", "coordinates": [-74.0048211629, 40.7222204209]}, "type": "Feature", "id": "32", "properties": {"RS_ID": 33, "Location": "Thompson St between Grand St and Sixth Ave"}}, {"geometry": {"type": "Point", "coordinates": [-74.0029446106, 40.741722907]}, "type": "Feature", "id": "33", "properties": {"RS_ID": 34, "Location": "W 16th St between Ninth Ave and Eight Ave"}}, {"geometry": {"type": "Point", "coordinates": [-73.9951494156, 40.7422345232]}, "type": "Feature", "id": "34", "properties": {"RS_ID": 35, "Location": "W 21st St between Sixth Ave and Seventh Ave"}}, {"geometry": {"type": "Point", "coordinates": [-73.9928099716, 40.7454332385]}, "type": "Feature", "id": "35", "properties": {"RS_ID": 36, "Location": "W 26th St between Seventh Ave and Sixth Ave"}}, {"geometry": {"type": "Point", "coordinates": [-73.9871288502, 40.7470596743]}, "type": "Feature", "id": "36", "properties": {"RS_ID": 37, "Location": "W 31st St between Fifth Ave and Broadway"}}, {"geometry": {"type": "Point", "coordinates": [-73.9916618113, 40.7572612863]}, "type": "Feature", "id": "37", "properties": {"RS_ID": 38, "Location": "W 41st St between Eighth Ave and Ninth Ave"}}, {"geometry": {"type": "Point", "coordinates": [-73.9959009245, 40.7615746731]}, "type": "Feature", "id": "38", "properties": {"RS_ID": 39, "Location": "W 44th St between Eleventh Ave and Tenth Ave"}}, {"geometry": {"type": "Point", "coordinates": [-73.992148027, 40.7616117227]}, "type": "Feature", "id": "39", "properties": {"RS_ID": 40, "Location": "W 46th St between Ninth Ave and Tenth Ave"}}, {"geometry": {"type": "Point", "coordinates": [-73.9949732542, 40.7628305695]}, "type": "Feature", "id": "40", "properties": {"RS_ID": 41, "Location": "W 46th St between Eleventh Ave and Tenth Ave"}}, {"geometry": {"type": "Point", "coordinates": [-73.9903096412, 40.7641113326]}, "type": "Feature", "id": "41", "properties": {"RS_ID": 42, "Location": "W 50th St between Ninth Ave and Tenth Ave"}}, {"geometry": {"type": "Point", "coordinates": [-73.9947014198, 40.7676035487]}, "type": "Feature", "id": "42", "properties": {"RS_ID": 43, "Location": "W 52nd St between Twelfth Ave and Eleventh Ave"}}, {"geometry": {"type": "Point", "coordinates": [-73.9908785372, 40.7684271048]}, "type": "Feature", "id": "43", "properties": {"RS_ID": 44, "Location": "W 55th St between Tenth Ave and Eleventh Ave"}}, {"geometry": {"type": "Point", "coordinates": [-73.9284084512, 40.7467204482]}, "type": "Feature", "id": "44", "properties": {"RS_ID": 45, "Location": "36th St between Skillman Ave and 43rd Ave"}}, {"geometry": {"type": "Point", "coordinates": [-73.928043, 40.74605]}, "type": "Feature", "id": "45", "properties": {"RS_ID": 46, "Location": "43rd Avenue between 36th St and 37th St (site unconfirmed by DOT)"}}, {"geometry": {"type": "Point", "coordinates": [-73.9444797036, 40.746764101]}, "type": "Feature", "id": "46", "properties": {"RS_ID": 47, "Location": "45th Ave between Jackson Ave and 23rd St"}}, {"geometry": {"type": "Point", "coordinates": [-73.944729, 40.746821]}, "type": "Feature", "id": "47", "properties": {"RS_ID": 48, "Location": "45th Ave between 45th Ave Rdwy and 23rd St"}}, {"geometry": {"type": "Point", "coordinates": [-73.9098230224, 40.743681317]}, "type": "Feature", "id": "48", "properties": {"RS_ID": 49, "Location": "55th St between Queens Blvd and Roosevelt Ave"}}, {"geometry": {"type": "Point", "coordinates": [-73.8988282241, 40.7513249518]}, "type": "Feature", "id": "49", "properties": {"RS_ID": 50, "Location": "64th St between 34th Ave and 35th Ave"}}, {"geometry": {"type": "Point", "coordinates": [-73.939737, 40.740636]}, "type": "Feature", "id": "50", "properties": {"RS_ID": 51, "Location": "Hunters Point Ave between 27th St and 30th St (exact point unclear)"}}, {"geometry": {"type": "Point", "coordinates": [-73.944409, 40.745483]}, "type": "Feature", "id": "51", "properties": {"RS_ID": 52, "Location": "Pearson St between Jackson Ave and Dead End"}}, {"geometry": {"type": "Point", "coordinates": [-73.9105368239, 40.7423788383]}, "type": "Feature", "id": "52", "properties": {"RS_ID": 53, "Location": "Queens Blvd between 55th St and 54th St"}}, {"geometry": {"type": "Point", "coordinates": [-73.9277910745, 40.7474118253]}, "type": "Feature", "id": "53", "properties": {"RS_ID": 54, "Location": "Skillman Ave between 37th St and 36th St"}}, {"geometry": {"type": "Point", "coordinates": [-73.9332505683, 40.7456061491]}, "type": "Feature", "id": "54", "properties": {"RS_ID": 55, "Location": "Van Dam St between Queens Blvd and Skillman Ave"}}, {"geometry": {"type": "Point", "coordinates": [-73.9476596808, 40.7516792074]}, "type": "Feature", "id": "55", "properties": {"RS_ID": 56, "Location": "43rd Avenue between 11th Street and 12th Street (north side)"}}, {"geometry": {"type": "Point", "coordinates": [-73.9144427519, 40.7428202069]}, "type": "Feature", "id": "56", "properties": {"RS_ID": 57, "Location": "Queens Boulevard between 50th Street and 51st Street (south side)"}}, {"geometry": {"type": "Point", "coordinates": [-74.007785378, 40.7116119148]}, "type": "Feature", "id": "57", "properties": {"RS_ID": 58, "Location": "Park Row between Ann Street and Beekman Street (south side)"}}, {"geometry": {"type": "Point", "coordinates": [-73.9806101513, 40.7402871645]}, "type": "Feature", "id": "58", "properties": {"RS_ID": 59, "Location": "East 26th Street between Third Avenue and Second Avenue (south side)"}}, {"geometry": {"type": "Point", "coordinates": [-73.9925626332, 40.756005287]}, "type": "Feature", "id": "59", "properties": {"RS_ID": 60, "Location": "West 39th Street between Eighth Avenue and Ninth Avenue (south side)"}}]}